{"type":"FeatureCollection","features":[{"type":"Feature","geometry":{"type":"Point","coordinates":[103.8,1.3]},"properties":{"name":"Sequoia Capital","website":"https://www.sequoiacap.com/","address":"6 Battery Road, Level 19, Singapore 049909"}},{"type":"Feature","geometry":{"type":"Point","coordinates":[103.8484,1.28181]},"properties":{"name":"TradeGecko","website":"http://tradegecko.com","address":"101C Telok Ayer St, 4th Floor, Singapore 018960"}},{"type":"Feature","geometry":{"type":"Point","coordinates":[103.7877,1.29787]},"properties":{"name":"Bash","website":"http://www.infocomminvestments.com/","address":"79 Ayer Rajah Crescent, Level 3, Singapore 139955"}},{"type":"Feature","geometry":{"type":"Point","coordinates":[103.848,1.28209]},"properties":{"name":"Muru-D","website":"http://muru-d.com","address":"115 Amoy Street, Singapore 069935"}},{"type":"Feature","geometry":{"type":"Point","coordinates":[103.848,1.28209]},"properties":{"name":"Amazon Web Services","website":"http://aws.amazon.com/","address":"23 Church Street, Level 10, Singapore 049481"}},{"type":"Feature","geometry":{"type":"Point","coordinates":[103.848,1.28209]},"properties":{"name":"Mashable","website":"http://www.mashable.com","address":"115 Amoy Street, Singapore 069935"}},{"type":"Feature","geometry":{"type":"Point","coordinates":[103.848,1.28209]},"properties":{"name":"Facebook","website":"https://www.facebook.com/"}},{"type":"Feature","geometry":{"type":"Point","coordinates":[103.848,1.28209]},"properties":{"name":"Twitter","website":"http://twitter.com"}},{"type":"Feature","geometry":{"type":"Point","coordinates":[103.848,1.28209]},"properties":{"name":"Google Developers","website":"https://developers.google.com/","address":"8 Marina View, Asia Square Tower #1, Level 30, Singapore 018960"}},{"type":"Feature","geometry":{"type":"Point","coordinates":[103.8431,1.27812]},"properties":{"name":"Golden Gate Ventures","website":"http://goldengate.vc","address":"73B Duxton Road, Singapore 089532"}},{"type":"Feature","geometry":{"type":"Point","coordinates":[103.8414,1.279089]},"properties":{"name":"Hootsuite","website":"https://hootsuite.com/","address":"1 Keong Saik Road, Singapore 089109"}},{"type":"Feature","geometry":{"type":"Point","coordinates":[103.8837,1.31336]},"properties":{"name":"BeMyGuest","website":"http://bemyguest.com.sg/","address":"452B Geylang Road, Singapore 389411"}},{"type":"Feature","geometry":{"type":"Point","coordinates":[103.7871,1.29693]},"properties":{"name":"e27","website":"http://e27.co/","address":"71 Ayer Rajah Crescent #02-15, Singapore 139951"}},{"type":"Feature","geometry":{"type":"Point","coordinates":[103.7869,1.29677]},"properties":{"name":"Heardable Pte Ltd","website":"http://heardable.com/","address":"71 Ayer Rajah Crescent #01-17/18, Singapore 139951"}},{"type":"Feature","geometry":{"type":"Point","coordinates":[103.7869,1.29677]},"properties":{"name":"JFDI - The Joyful Frog Digital Incubator","website":"http://www.jfdi.asia/","address":"72 Ayer Rajah Crescent #05-16, Singapore 139951"}},{"type":"Feature","geometry":{"type":"Point","coordinates":[103.8422,1.28073]},"properties":{"name":"Pie","website":"https://pie.co/","address":"35A Kreta Ayer Road, Singapore 089000"}},{"type":"Feature","geometry":{"type":"Point","coordinates":[103.8467,1.28847]},"properties":{"name":"90 Seconds","website":"http://90seconds.com.sg/","address":"12 Eu Tong Sen Street #06-164, Singapore 059819"}},{"type":"Feature","geometry":{"type":"Point","coordinates":[103.8557,1.30623]},"properties":{"name":"Tinkerbox Studios","website":"http://tinkerbox.com.sg/","address":"113B Jalan Besar, Singapore 208833"}},{"type":"Feature","geometry":{"type":"Point","coordinates":[103.8839,1.31305]},"properties":{"name":"The Co-Foundry","website":"http://theco-foundry.com/","address":"11 Lorong 24A Geylang, Singapore 398535"}},{"type":"Feature","geometry":{"type":"Point","coordinates":[103.8489,1.28114]},"properties":{"name":"Collective Works","website":"http://collective.works/","address":"100 Cecil Street, Level 10, The Globe, Singapore 069532"}},{"type":"Feature","geometry":{"type":"Point","coordinates":[103.7867,1.29692]},"properties":{"name":"smove","website":"http://smove.sg","address":"71 Ayer Rajah Crescent #06-24, Singapore 139951"}},{"type":"Feature","geometry":{"type":"Point","coordinates":[103.8505,1.28389]},"properties":{"name":"Cialfo ","website":"http://cialfo.com.sg/","address":"20 Malacca Street #16-00, Malacca Centre, Singapore 048979"}},{"type":"Feature","geometry":{"type":"Point","coordinates":[103.844,1.29772]},"properties":{"name":"ZALORA","website":"http://zalora.sg/","address":"182 Clemenceau Avenue #06-00, Singapore 239923"}},{"type":"Feature","geometry":{"type":"Point","coordinates":[103.8433,1.27925]},"properties":{"name":"Incubasia Ventures","website":"http://incubasia-ventures.com/","address":"26 Duxton Road, Singapore 089490"}},{"type":"Feature","geometry":{"type":"Point","coordinates":[103.8518,1.29871]},"properties":{"name":"Clubvivre","website":"http://clubvivre.com/","address":"261 Waterloo Street #03-32, Singapore 180261\n"}},{"type":"Feature","geometry":{"type":"Point","coordinates":[103.7877,1.29787]},"properties":{"name":"Intraix Pte. Ltd.","website":"https://intraix.com/","address":"79 Ayer Rajah Crescent #02-23, Singapore 139955"}},{"type":"Feature","geometry":{"type":"Point","coordinates":[103.8509,1.2921]},"properties":{"name":"migme Limited","website":"http://mig.me/","address":"111 North Bridge Road #26-01, Peninsula Plaza, Singapore 179098"}},{"type":"Feature","geometry":{"type":"Point","coordinates":[103.8374,1.30055]},"properties":{"name":"The Hub Singapore","website":"http://singapore.impacthub.net/","address":"National Youth Council Building, 113 Somerset Road, Singapore 238165"}},{"type":"Feature","geometry":{"type":"Point","coordinates":[103.7874,1.29975]},"properties":{"name":"Glints","website":"http://glints.com","address":"BASH, 79 Ayer Rajah Crescent (Level 3) Singapore 139955"}},{"type":"Feature","geometry":{"type":"Point","coordinates":[103.8804,1.31792]},"properties":{"name":"Coursepad Pte. Ltd.","website":"https://coursepad.com/","address":"124 Lorong 23 Geylang, #08-01 Arcsphere, Singapore 388405"}},{"type":"Feature","geometry":{"type":"Point","coordinates":[103.848,1.28209]},"properties":{"name":"switchedOn Teams","website":"http://switchedon.com/","address":"115 Amoy Street, Singapore 069935"}},{"type":"Feature","geometry":{"type":"Point","coordinates":[103.7877,1.29787]},"properties":{"name":"Infocomm Investments","website":"http://infocomminvestments.com/","address":"BASH, 79 Ayer Rajah Crescent #03-01, Singapore 139955"}},{"type":"Feature","geometry":{"type":"Point","coordinates":[103.8433,1.27922]},"properties":{"name":"YOOSE","website":"http://yoose.com/","address":"30A Duxton Road, Singapore 089494"}},{"type":"Feature","geometry":{"type":"Point","coordinates":[103.7869,1.29677]},"properties":{"name":"Art Of Click","website":"http://artofclick.com/","address":"71 Ayer Rajah Crescent #05-01, Singapore 139951"}},{"type":"Feature","geometry":{"type":"Point","coordinates":[103.7869,1.29677]},"properties":{"name":"Plug-In@Blk71 ","website":"http://blk71.com/","address":"71 Ayer Rajah Crescent #02-18, Singapore 139951"}},{"type":"Feature","geometry":{"type":"Point","coordinates":[103.833,1.35858]},"properties":{"name":"EasyVan by lalaMove Singapore","website":"http://easyvan.sg/","address":"24 Sin Ming Lane #02-97, Midview City, Singapore 573970"}},{"type":"Feature","geometry":{"type":"Point","coordinates":[103.8544,1.29626]},"properties":{"name":"Foolproof","website":"http://foolproof.com.sg/","address":"25 Seah Street #03-02, Singapore 188381"}},{"type":"Feature","geometry":{"type":"Point","coordinates":[103.8482,1.27421]},"properties":{"name":"Helpling","website":"https://helpling.com.sg/","address":"Bestway Building, 12 Prince Edward Road Podium B #03-10, Singapore 079212"}},{"type":"Feature","geometry":{"type":"Point","coordinates":[103.7869,1.29677]},"properties":{"name":"99.co","website":"https://99.co/","address":"71 Ayer Rajah Crescent #03-04, Singapore 139951"}},{"type":"Feature","geometry":{"type":"Point","coordinates":[103.8544,1.27909]},"properties":{"name":"Palantir Technologies","website":"http://palantir.com","address":"12 Marina Blvd #17-01, MBFC Tower 3, Singapore 018982"}},{"type":"Feature","geometry":{"type":"Point","coordinates":[103.7869,1.29677]},"properties":{"name":"Memom Pte Ltd","website":"http://memom.me","address":"71 Ayer Rajah Crescent #02-16, Singapore 139951"}},{"type":"Feature","geometry":{"type":"Point","coordinates":[103.8467,1.28852]},"properties":{"name":"Leo Tech Services Pte Ltd","website":"http://leotech.com.sg/","address":"8 Eu Tong Sen Street 24-89/90, The Central, Singapore 059818\n"}},{"type":"Feature","geometry":{"type":"Point","coordinates":[103.844,1.27946]},"properties":{"name":"Reading Room","website":"http://readingroom.com/","address":"21 Tanjong Pagar Road #04-01, Singapore 088444"}},{"type":"Feature","geometry":{"type":"Point","coordinates":[103.848,1.28209]},"properties":{"name":"The Artling","website":"http://theartling.com/","address":"115 Amoy Street, #4-00, Singapore 069935"}},{"type":"Feature","geometry":{"type":"Point","coordinates":[103.848,1.28209]},"properties":{"name":"Roomorama Pte. Ltd","website":"https://www.roomorama.com/","address":"115 Amoy Street, #03-00, Singapore 069935"}},{"type":"Feature","geometry":{"type":"Point","coordinates":[103.8451,1.2837]},"properties":{"name":"Kaligo","website":"http://www.kaligo.com","address":"36B Mosque Street, Singapore 059514"}},{"type":"Feature","geometry":{"type":"Point","coordinates":[103.796,1.30459]},"properties":{"name":"CXA Group","website":"http://www.cxagroup.com/","address":"1 Commonwealth Ave #07-25, Singapore 160007"}},{"type":"Feature","geometry":{"type":"Point","coordinates":[103.7868,1.29621]},"properties":{"name":"Appcelerator Singapore Pte Ltd","website":"http://www.appcelerator.com","address":"Blk 69 Ayer Rajah Crescent, #03-03, Singapore 139961"}},{"type":"Feature","geometry":{"type":"Point","coordinates":[103.7876,1.30018]},"properties":{"name":"Greenfossil Pte Ltd","website":"http://www.greenfossil.com","address":"3 Fusionopolis Place, #04-57 Galaxis Work Lofts, Singapore 138523"}},{"type":"Feature","geometry":{"type":"Point","coordinates":[103.7877,1.29787]},"properties":{"name":"BonAppetour ","website":"https://www.bonappetour.com","address":"79 Ayer Rajah Crescent, Level 3, Singapore 139955"}},{"type":"Feature","geometry":{"type":"Point","coordinates":[103.8438,1.2831]},"properties":{"name":"12 Gigs","website":"http://www.12gigs.com","address":"41 Temple Street #03-01, Singapore 058586\n"}},{"type":"Feature","geometry":{"type":"Point","coordinates":[103.7866,1.296742]},"properties":{"name":"Newcleus","website":"http://www.newcleus.co/","address":"71 ayer rajah crescent, #02-18, s-139951"}},{"type":"Feature","geometry":{"type":"Point","coordinates":[103.7866,1.296742]},"properties":{"name":"Otter","website":"http://otter.sg","address":"71 Ayer Rajah Crescent, #02-18, Singapore 139951"}},{"type":"Feature","geometry":{"type":"Point","coordinates":[103.8505,1.28248]},"properties":{"name":"Springboard","website":"http://springboard.sg","address":"19 Cecil Street #04-10, The Quadrant @ Cecil, Singapore 049704"}},{"type":"Feature","geometry":{"type":"Point","coordinates":[103.847,1.28094]},"properties":{"name":"ThoughtWorks","website":"http://thoughtworks.com/","address":"87B Amoy Street Level 3, Singapore 069906 "}},{"type":"Feature","geometry":{"type":"Point","coordinates":[103.7866636,1.2967417]},"properties":{"name":"Viddsee","website":"http://viddsee.com","address":"71 Ayer Rajah Crescent #03-06, Singapore 139951"}},{"type":"Feature","geometry":{"type":"Point","coordinates":[103.8639,1.30974]},"properties":{"name":"Nonstop Games - King","website":"http://nonstop-games.com/","address":"12 Kallang Avenue, #03-20 Aperia, Singapore 339511\n"}},{"type":"Feature","geometry":{"type":"Point","coordinates":[103.7872,1.29672]},"properties":{"name":"MoneySmart.sg","website":"http://moneysmart.sg","address":"71 Ayer Rajah Crescent #07-11, Singapore 139951"}},{"type":"Feature","geometry":{"type":"Point","coordinates":[103.844,1.28342]},"properties":{"name":"Villa-Finder.com","website":"http://villa-finder.com","address":"55A Pagoda Street, Singapore 059214"}},{"type":"Feature","geometry":{"type":"Point","coordinates":[103.8423,1.28209]},"properties":{"name":"Gametize","website":"http://gametize.com","address":"83 Keong Saik Road, Singapore 089168"}},{"type":"Feature","geometry":{"type":"Point","coordinates":[103.8475,1.27605]},"properties":{"name":"Red Hat","website":"http://redhat.com","address":"8 Shenton Way #10, Singapore 068811"}},{"type":"Feature","geometry":{"type":"Point","coordinates":[103.8368,1.30054]},"properties":{"name":"Gone Adventurin","website":"http://goneadventurin.com","address":"113 Somerset Road, Singapore 238165"}},{"type":"Feature","geometry":{"type":"Point","coordinates":[103.8414,1.27908]},"properties":{"name":"The Working Capitol","website":"http://theworkingcapitol.com","address":"1 Keong Saik Road, Singapore 089109"}},{"type":"Feature","geometry":{"type":"Point","coordinates":[103.8535,1.29882]},"properties":{"name":"IDA Labs","website":"http://ida.gov.sg/Programmes-Partnership/Store/IDA-Labs","address":"111 Middle Road, National Design Centre #02-04, Singapore 188969"}},{"type":"Feature","geometry":{"type":"Point","coordinates":[103.8494,1.30062]},"properties":{"name":"GA+Partners Pte Ltd","website":"http://gapluspartners.com","address":"35 Selegie Road #10-11 Parklane Mall, Singapore 188307"}},{"type":"Feature","geometry":{"type":"Point","coordinates":[103.8494,1.29028]},"properties":{"name":"The Co","website":"http://jointhe.co","address":"75 High Street, Singapore 179435"}},{"type":"Feature","geometry":{"type":"Point","coordinates":[103.8416,1.2791]},"properties":{"name":"Photomoolah Pte Ltd ","website":"http://photomoolah.com","address":"Working Capitol, 1 Keong Saik Road, Singapore 089109\n"}},{"type":"Feature","geometry":{"type":"Point","coordinates":[103.8414,1.27908]},"properties":{"name":"The Change School","website":"http://thechangeschool.com","address":"1 Keong Saik Road, The Working Capitol"}},{"type":"Feature","geometry":{"type":"Point","coordinates":[103.8624,1.31042]},"properties":{"name":"HackerspaceSG","website":"http://hackerspace.sg","address":"344B King Georgeâ€™s Avenue, Singapore 208576"}},{"type":"Feature","geometry":{"type":"Point","coordinates":[103.9013,1.31287]},"properties":{"name":"buUuK Pte Ltd","website":"http://buuuk.com/","address":"41 Tembeling Road, Singapore 423584"}},{"type":"Feature","geometry":{"type":"Point","coordinates":[103.8414,1.27908]},"properties":{"name":"SingSaver.com.sg","website":"http://singsaver.com.sg","address":"The Working Capitol, 1A Keong Saik Road, Singapore 089109"}},{"type":"Feature","geometry":{"type":"Point","coordinates":[103.786,1.29677]},"properties":{"name":"Capital Match","website":"http://capital-match.com","address":"71 Ayer Rajah Crescent #06-16, Singapore 139951"}},{"type":"Feature","geometry":{"type":"Point","coordinates":[103.786,1.29677]},"properties":{"name":"Carousell","website":"http://carousell.com","address":"71 Ayer Rajah Crescent, #03-14 Singapore 139951"}},{"type":"Feature","geometry":{"type":"Point","coordinates":[103.786,1.29677]},"properties":{"name":"Dropmysite","website":"https://dropmysite.com/ ","address":"71 Ayer Rajah Crescent, #01-12 Singapore 139951"}},{"type":"Feature","geometry":{"type":"Point","coordinates":[103.786,1.29677]},"properties":{"name":"Crystal Horse","website":"http://ch-investments.com.sg","address":"71 Ayer Rajah Crescent, #06-16 Singapore 139951"}},{"type":"Feature","geometry":{"type":"Point","coordinates":[103.786,1.29677]},"properties":{"name":"Hatcher Pte Ltd","website":"http://hatcher.com","address":"71 Ayer Rajah Crescent, #01-12 Singapore 139951"}},{"type":"Feature","geometry":{"type":"Point","coordinates":[103.786,1.29677]},"properties":{"name":"Singtel innov8","website":"http://innov8.singtel.com","address":"71 Ayer Rajah Crescent, #02-22 Singapore 139951"}},{"type":"Feature","geometry":{"type":"Point","coordinates":[103.786,1.29677]},"properties":{"name":"Inzen Studio","website":"http://inzenstudio.com","address":"71 Ayer Rajah Crescent, #01-12 Singapore 139951"}},{"type":"Feature","geometry":{"type":"Point","coordinates":[103.786,1.29677]},"properties":{"name":"Keygo","website":"http://keygo.me","address":"71 Ayer Rajah Crescent, #01-12 Singapore 139951"}},{"type":"Feature","geometry":{"type":"Point","coordinates":[103.7865,1.297376]},"properties":{"name":"Moneythor","website":"http://moneythor.com","address":"73 Ayer Rajah Crescent #02-16, Singapore 139952"}},{"type":"Feature","geometry":{"type":"Point","coordinates":[103.786,1.29677]},"properties":{"name":"Penroads","website":"https://penroads.com","address":"71 Ayer Rajah Crescent, #06-16 Singapore 139951"}},{"type":"Feature","geometry":{"type":"Point","coordinates":[103.786,1.29677]},"properties":{"name":"3D Hive","website":"http://3DHive.net","address":"71 Ayer Rajah Crescent, #04-16 Singapore 139951"}},{"type":"Feature","geometry":{"type":"Point","coordinates":[103.786,1.29677]},"properties":{"name":"Referral Candy","website":"http://referralcandy.com","address":"71 Ayer Rajah Crescent, #06-26 Singapore 139951"}},{"type":"Feature","geometry":{"type":"Point","coordinates":[103.786,1.29677]},"properties":{"name":"ViSenze","website":"http://visenze.com","address":"71 Ayer Rajah Crescent, #04-10 Singapore 139951"}},{"type":"Feature","geometry":{"type":"Point","coordinates":[103.7865,1.297376]},"properties":{"name":"Wedilo","website":"http://wedilo.com","address":"73 Ayer Rajah Crescent, #13/14 Singapore 139952"}},{"type":"Feature","geometry":{"type":"Point","coordinates":[103.7865,1.297376]},"properties":{"name":"Weave","website":"http://weave.com.sg/","address":"73 Ayer Rajah Crescent, 73 #03-17/18, Singapore 139952"}},{"type":"Feature","geometry":{"type":"Point","coordinates":[103.8448,1.274056]},"properties":{"name":"2359 Media Pte Ltd","website":"http://2359media.com","address":"70 Anson Road, #24-01, Hub Synergy Point, Singapore 079905"}},{"type":"Feature","geometry":{"type":"Point","coordinates":[103.7869,1.29677]},"properties":{"name":"T.Ware Pte Ltd","website":"http://mytjacket.com/","address":"71 Ayer Rajah Crescent #06-15, Singapore 139951"}},{"type":"Feature","geometry":{"type":"Point","coordinates":[103.786,1.29677]},"properties":{"name":"Games Solution Centre (NYP)","website":"http://gsc.sg","address":"71 Ayer Rajah Crescent, #04-01 Singapore 139951"}},{"type":"Feature","geometry":{"type":"Point","coordinates":[103.786,1.29677]},"properties":{"name":"Mocha Chai Laboratories Pte Ltd","website":"http://mochachailab.com","address":"71 Ayer Rajah Crescent, #06-14 Singapore 139951"}},{"type":"Feature","geometry":{"type":"Point","coordinates":[103.786,1.29677]},"properties":{"name":"Paywhere","website":"http://paywhere.com","address":"71 Ayer Rajah Crescent, #07-03 Singapore 139951"}},{"type":"Feature","geometry":{"type":"Point","coordinates":[103.786,1.29677]},"properties":{"name":"F*** (Film, Fame Fact)","website":"http://fmoviemag.com","address":"71 Ayer Rajah Crescent, #07-18 Singapore 139951"}},{"type":"Feature","geometry":{"type":"Point","coordinates":[103.786,1.29677]},"properties":{"name":"Sugar","website":"http://sugar.sg","address":"71 Ayer Rajah Crescent, #01-25 Singapore 139951"}},{"type":"Feature","geometry":{"type":"Point","coordinates":[103.786,1.29677]},"properties":{"name":"Travelog","website":"http://travelog.me","address":"71 Ayer Rajah Crescent, #06-16 Singapore 139951"}},{"type":"Feature","geometry":{"type":"Point","coordinates":[103.835,1.30657]},"properties":{"name":"Vanitee","website":"http://www.vanitee.com","address":"41 Jalan Elok, Singapore 229073"}},{"type":"Feature","geometry":{"type":"Point","coordinates":[103.787,1.29787]},"properties":{"name":"Red Dot Ventures","website":"http://reddotventures.com","address":"79 Ayer Rajah Crescent, #04-03/04 Singapore 139955"}},{"type":"Feature","geometry":{"type":"Point","coordinates":[103.8524,1.28238]},"properties":{"name":"Microsoft","website":"http://microsoft.com/bizspark/","address":"1 Marina Blvd, Singapore 018989"}},{"type":"Feature","geometry":{"type":"Point","coordinates":[103.8414,1.279089]},"properties":{"name":"Bitsmedia Pte Ltd","website":"http://bitsmedia.com/","address":"1 Keong Saik Road, Singapore 089109"}},{"type":"Feature","geometry":{"type":"Point","coordinates":[103.8494,1.29028]},"properties":{"name":"Minerlabs","website":"http://minerlabs.com","address":"75 High Street, Singapore 179435"}},{"type":"Feature","geometry":{"type":"Point","coordinates":[103.8374,1.30055]},"properties":{"name":"A Very Good Company","website":"http://averygoodcompany.com","address":"National Youth Council Building, 113 Somerset Road, Singapore 238165"}},{"type":"Feature","geometry":{"type":"Point","coordinates":[103.8544,1.296267]},"properties":{"name":"Red Airship","website":"http://www.redairship.com/","address":"25 Seah Street #03-01, Singapore 188381"}},{"type":"Feature","geometry":{"type":"Point","coordinates":[103.8374,1.30055]},"properties":{"name":"CreativesAtWork Pte Ltd","website":"http://www.creativesatwork.me","address":"National Youth Council Building, 113 Somerset Road, Singapore 238165"}},{"type":"Feature","geometry":{"type":"Point","coordinates":[103.8374,1.30055]},"properties":{"name":"FitSense Pte Ltd","website":"http://www.getfitsense.com/","address":"National Youth Council Building, 113 Somerset Road, Singapore 238165"}},{"type":"Feature","geometry":{"type":"Point","coordinates":[103.8374,1.30055]},"properties":{"name":"2sherpa","website":"http://www.2sherpa.com","address":"National Youth Council Building, 113 Somerset Road, Singapore 238165"}},{"type":"Feature","geometry":{"type":"Point","coordinates":[103.7872,1.29672]},"properties":{"name":"Angels Gate Advisory","website":"http://angelsgateadvisory.sg/","address":"71 Ayer Rajah Crescent #03-26, Singapore 139951"}},{"type":"Feature","geometry":{"type":"Point","coordinates":[103.7872,1.29672]},"properties":{"name":"RedMart","website":"https://redmart.com/"}},{"type":"Feature","geometry":{"type":"Point","coordinates":[103.7872,1.29672]},"properties":{"name":"Yelp","website":"http://www.yelp.com/singapore"}},{"type":"Feature","geometry":{"type":"Point","coordinates":[103.8387,1.291267]},"properties":{"name":"Uber","website":"https://www.uber.com/cities/singapore","address":"20 Martin Road, 9th Floor, Singapore 239070"}},{"type":"Feature","geometry":{"type":"Point","coordinates":[103.7869,1.29677]},"properties":{"name":"Minematic Pte. Ltd.","website":"http://www.minematic.com","address":"71 Ayer Rajah Crescent, #06-16 Singapore 139951"}},{"type":"Feature","geometry":{"type":"Point","coordinates":[103.8481,1.28869]},"properties":{"name":"Eyeota","website":"http://www.eyeota.com","address":"12A Upper Circular Rd, Singapore 058410"}},{"type":"Feature","geometry":{"type":"Point","coordinates":[103.8431,1.27812]},"properties":{"name":"Waygo","website":"http://www.waygoapp.com","address":"73B Duxton Road, Singapore 089532"}},{"type":"Feature","geometry":{"type":"Point","coordinates":[103.8431,1.27812]},"properties":{"name":"Stamp","website":"http://www.getmystamp.com","address":"73B Duxton Road, Singapore 089532"}},{"type":"Feature","geometry":{"type":"Point","coordinates":[103.8374,1.30055]},"properties":{"name":"Our Better World","website":"http://www.ourbetterworld.org","address":"National Youth Council Building, 113 Somerset Road, Singapore 238165"}},{"type":"Feature","geometry":{"type":"Point","coordinates":[103.848,1.28209]},"properties":{"name":"Startup Grind","website":"www.startupgrind.com/singapore","address":"115 Amoy Street, Singapore 069935"}},{"type":"Feature","geometry":{"type":"Point","coordinates":[103.7869,1.29677]},"properties":{"name":"Lithan Accelerator","website":"https://www.lithanhall.com/","address":"79 Ayer Rajah Crescent, #04-03/04, Singapore 139955"}},{"type":"Feature","geometry":{"type":"Point","coordinates":[103.8433,1.27925]},"properties":{"name":"The Singapore FinTech Consortium","website":"http://www.singaporefintech.com","address":"26 Duxton Road, Singapore 089490"}},{"type":"Feature","geometry":{"type":"Point","coordinates":[103.8212,1.28147]},"properties":{"name":"Luxola Pte Ltd","website":"http://www.luxola.com","address":"203B Henderson Road, #02-06, Singapore 159546"}},{"type":"Feature","geometry":{"type":"Point","coordinates":[103.8431,1.27812]},"properties":{"name":"Appota","website":"http://appota.com ","address":"73B Duxton Road, Singapore 089532"}},{"type":"Feature","geometry":{"type":"Point","coordinates":[103.7869,1.29677]},"properties":{"name":"Eventnook  ","website":"http://www.eventnook.com/","address":"71 Ayer Rajah Crescent #02-18, Singapore 139951"}},{"type":"Feature","geometry":{"type":"Point","coordinates":[103.7869,1.29677]},"properties":{"name":"Hacker Trail","website":"https://www.hackertrail.com/","address":"71 Ayer Rajah Crescent #02-18, Singapore 139951"}},{"type":"Feature","geometry":{"type":"Point","coordinates":[103.7869,1.29677]},"properties":{"name":"ShopBack","website":"https://www.shopback.sg/","address":"71 Ayer Rajah Crescent #02-18, Singapore 139951"}},{"type":"Feature","geometry":{"type":"Point","coordinates":[103.7869,1.29677]},"properties":{"name":"GTRIIP Pte Ltd","website":"http://www.gtriip.com/","address":"71 Ayer Rajah Crescent #02-18, Singapore 139951"}},{"type":"Feature","geometry":{"type":"Point","coordinates":[103.7869,1.29677]},"properties":{"name":"SGRECX","website":"https://sgrecx.com/","address":"71 Ayer Rajah Crescent #02-18, Singapore 139951"}},{"type":"Feature","geometry":{"type":"Point","coordinates":[103.7869,1.29677]},"properties":{"name":"BizEquity","website":"https://www.bizequity.com/","address":"71 Ayer Rajah Crescent #02-18, Singapore 139951"}},{"type":"Feature","geometry":{"type":"Point","coordinates":[103.7869,1.29677]},"properties":{"name":"PlayPal Group","website":"http://playpal.sg/","address":"71 Ayer Rajah Crescent #02-18, Singapore 139951"}},{"type":"Feature","geometry":{"type":"Point","coordinates":[103.7869,1.29677]},"properties":{"name":"RecordTV","website":"https://www.recordtv.com/","address":"71 Ayer Rajah Crescent #02-18, Singapore 139951"}},{"type":"Feature","geometry":{"type":"Point","coordinates":[103.7869,1.29677]},"properties":{"name":"Algo Access","website":"http://algoaccess.com/","address":"71 Ayer Rajah Crescent #02-18, Singapore 139951"}},{"type":"Feature","geometry":{"type":"Point","coordinates":[103.7869,1.29677]},"properties":{"name":"Rewardz","website":"http://rewardz.sg/","address":"71 Ayer Rajah Crescent #02-18, Singapore 139951"}},{"type":"Feature","geometry":{"type":"Point","coordinates":[103.7869,1.29677]},"properties":{"name":"Tapi Data Solutions Pte Ltd","website":"https://www.tapidata.com/","address":"71 Ayer Rajah Crescent #02-18, Singapore 139951"}},{"type":"Feature","geometry":{"type":"Point","coordinates":[103.7869,1.29677]},"properties":{"name":"Foodingo","website":"http://foodingo.strikingly.com/","address":"71 Ayer Rajah Crescent #02-18, Singapore 139951"}},{"type":"Feature","geometry":{"type":"Point","coordinates":[103.8926,1.31882]},"properties":{"name":"Foodpanda","website":"http://www.foodpanda.sg","address":"60 Paya Lebar Road #06-17/18, Paya Lebar Square, Singapore 409051"}},{"type":"Feature","geometry":{"type":"Point","coordinates":[103.8496,1.30344]},"properties":{"name":"honestbee","website":"http://www.honestbee.com ","address":"48 Niven Road, Singapore 228396"}},{"type":"Feature","geometry":{"type":"Point","coordinates":[103.7869,1.29677]},"properties":{"name":"HomeAway","website":"http://www.homeaway.com.sg","address":"71 Ayer Rajah Crescent, #01-20/21, Singapore 139951"}},{"type":"Feature","geometry":{"type":"Point","coordinates":[103.848,1.28209]},"properties":{"name":"Evernote","website":"http://evernote.com/","address":"115 Amoy Street, Singapore 069935"}}]}